     2.10           OBSERVATION DATA    M (MIXED)           RINEX VERSION / TYPE
Convert                                 18-Jan-2019 00:59   PGM / RUN BY / DATE 
Signal Strength values S1,S2 are in dBHz                    COMMENT             
                                                            MARKER NAME         
                                                            MARKER NUMBER       
                                                            OBSERVER / AGENCY   
BJYA16480577H       NOV D2SR0GTT0       OEM060710RN0000     REC # / TYPE / VERS 
                                                            ANT # / TYPE        
  3333057.5303  2447939.5865  4839667.9285                  APPROX POSITION XYZ 
        0.0000        0.0000        0.0000                  ANTENNA: DELTA H/E/N
     1     1                                                WAVELENGTH FACT L1/2
     1     1     7   G07   G08   G10   G13   G15   G16   G18WAVELENGTH FACT L1/2
     1     1     7   G20   G21   G26   G27   G29   G32   R04WAVELENGTH FACT L1/2
     1     1     7   R05   R06   R07   R11   R12   R13   R20WAVELENGTH FACT L1/2
     1     1     2   R21   R22                              WAVELENGTH FACT L1/2
                                                            COMMENT             
                                                            COMMENT             
                                                            COMMENT             
     8    C1    L1    D1    S1    P2    L2    D2    S2      # / TYPES OF OBSERV 
     1.000                                                  INTERVAL            
  2019    01    18    00    00     0.0000000    GPS         TIME OF FIRST OBS   
    18                                                      LEAP SECONDS        
                                                            END OF HEADER       
 19 01 18 04 03 55.0000000  0 25G32G28G03G31G11G20G08G18G17G14G27G10            
                                G24G01G22R23R09R15R08R01R07R06R16R22R24         
  20876572.99249 109707143.03949      -646.87949        51.000    20876572.33649
  85486076.55949      -504.06249        50.000  
  25221150.49245 132538041.39545     -1299.24645        41.000    25221146.68843
 103276401.36343     -1012.39843        35.000  
  23857151.96149 125370191.78149      3163.76649        48.000    23857151.03145
  97691042.42645      2465.27045        41.000  
  24840838.37546 130539481.07046      3493.11346        42.000    24840836.08644
 101719069.92244      2721.91044        37.000  
  20764681.30549 109119143.37949      1024.38349        50.000    20764677.32848
  85027918.25848       798.22348        47.000  
  25139366.85244 132108258.24644     -3368.98044        38.000    25139364.54743
 102941512.05543     -2625.17243        35.000  
  22648732.00849 119019889.39549     -2920.83249        49.000    22648731.81247
  92742793.89547     -2275.97347        45.000  
  19968579.17249 104935607.07449       340.55149        51.000    19968576.96949
  81767996.90249       265.36349        49.000  
  25820198.94546 135686066.16446      3143.68046        43.000    25820196.10242
 105729398.78142      2449.61742        33.000  
  20912500.86749 109895943.07049       739.66449        49.000    20912497.10249
  85633203.67249       576.36349        48.000  
  24419779.82047 128326809.42247     -3781.16847        44.000    24419780.28146
  99994899.14146     -2946.36346        42.000  
  22790292.46948 119763817.77348     -2828.25848        47.000    22790292.26647
  93322487.16847     -2203.84047        45.000  
  25338841.23445 133156522.73445     -2327.81245        40.000    25338839.78944
 103758331.94944     -1813.87944        38.000  
  21433935.34449 112636091.46149      2312.31249        51.000    21433934.93049
  87768385.97749      1801.80149        49.000  
  22379501.06249 117605065.60949      2398.30149        49.000    22379494.79748
  91640318.32448      1868.80948        46.000  
  19427638.90609 103924764.08609       805.93009        51.000    19427640.01606
  80830381.32406       626.83606        43.000  
  24242404.20304 129453094.31204      3500.03104        37.000    24242403.43006
 100685733.23806      2722.25406        42.000  
  24197818.48406 129305811.46906     -2297.16006        42.000    24197816.37505
 100571179.94505     -1786.68005        40.000  
  19492152.47709 104379616.28909      1109.58209        49.000    19492150.64809
  81184130.45709       863.00809        48.000  
  22371675.56208 119589436.93408      3533.81208        46.000    22371676.36704
  93014015.21904      2748.52004        38.000  
  20235456.47709 108321990.54709     -2473.89509        50.000    20235455.33608
  84250436.98408     -1924.14108        47.000  
  24240163.13343 129350170.56643     -3941.55543        36.000  

  23100935.21945 123401050.05555       632.87145        41.000  

  21045009.50809 112339695.67209     -3614.61709        49.000    21045009.29708
  87375323.12108     -2811.36708        46.000  
  22279215.47706 119136979.68806      3859.63706        43.000    22279213.77302
  92662079.73802      3001.94102        34.000  
 19 01 18 04 03 56.0000000  0 25G32G28G03G31G11G20G08G18G17G14G27G10            
                                G24G01G22R23R09R15R08R01R07R06R16R22R24         
  20876696.18849 109707790.34449      -647.27749        51.000    20876695.46149
  85486580.95349      -504.37149        50.000  
  25221397.73446 132539341.00846     -1299.84046        42.000    25221392.71943
 103277414.05943     -1012.85943        35.000  
  23856549.71149 125367028.19949      3163.62149        48.000    23856549.11745
  97688577.30145      2465.15645        41.000  
  24840173.96946 130535988.35546      3493.09846        42.000    24840170.90644
 101716348.33644      2721.89844        37.000  
  20764486.44549 109118119.39549      1023.94549        50.000    20764482.50848
  85027120.34848       797.87948        47.000  
  25140007.50845 132111627.24645     -3368.85545        39.000    25140005.71141
 102944137.26641     -2625.07841        31.000  
  22649287.93849 119022810.43849     -2921.01249        49.000    22649287.68847
  92745070.03547     -2276.11347        45.000  
  19968514.41449 104935266.90649       340.05149        51.000    19968512.21149
  81767731.83649       264.97749        49.000  
  25819601.08646 135682922.69546      3143.46146        43.000    25819597.22741
 105726949.34041      2449.45341        30.000  
  20912360.18849 109895203.77749       739.19949        49.000    20912356.40649
  85632627.60249       576.00049        48.000  
  24420499.43847 128330590.69147     -3781.17247        44.000    24420499.86745
  99997845.59045     -2946.36745        41.000  
  22790830.57849 119766646.25049     -2828.48449        48.000    22790830.38347
  93324691.17647     -2204.01647        44.000  
  25339284.03945 133158850.85245     -2328.31645        40.000    25339282.89142
 103760146.07442     -1814.27042        34.000  
  21433495.32849 112633779.32449      2312.18049        51.000    21433494.93849
  87766584.30949      1801.69549        49.000  
  22379044.68049 117602667.52349      2398.16049        49.000    22379038.42248
  91638449.68848      1868.69548        46.000  
  19427488.38309 103923958.67609       805.18809        51.000    19427489.44506
  80829754.89806       626.25806        43.000  
  24241749.95304 129449594.27004      3500.08604        37.000    24241747.99206
 100683010.99206      2722.29706        42.000  
  24198248.56206 129308109.05906     -2297.71106        42.000    24198246.20305
 100572966.96505     -1787.10505        40.000  
  19491945.42209 104378507.08209      1109.18809        49.000    19491943.46109
  81183267.74209       862.70309        48.000  
  22371014.92208 119585903.32008      3533.67608        46.000    22371015.43004
  93011266.85204      2748.41404        38.000  
  20235918.71109 108324464.75009     -2474.21909        50.000    20235917.56208
  84252361.36708     -1924.39108        47.000  
  24240902.83643 129354112.15643     -3941.32443        35.000  

  23100815.93845 123400417.63345       632.32845        41.000  

  21045686.74209 112343310.75009     -3615.12509        49.000    21045686.49208
  87378134.85208     -2811.76608        46.000  
  22278493.54706 119133120.37106      3859.23806        43.000    22278492.18002
  92659078.05502      3001.62902        34.000  
